[
  {
      "name": "Sunset Coffee Co.",
      "address": "123 Main Street, Candelaria, TX 78901",
      "phone": "(555) 123-4567",
      "website": "https://www.sunsetcoffee.com",
      "image": "images/sunset-coffe.jpg",
      "membershipLevel": "Gold",
      "description": "Local coffee roaster and café offering fair-trade coffee and pastries.",
      "hours": "Mon–Fri: 7am–5pm"
  },
  {
      "name": "Candelaria Fitness Center",
      "address": "456 Fit Lane, Candelaria, TX 78901",
      "phone": "(555) 987-6543",
      "website": "https://www.candefit.com",
      "image": "images/candelariafit.jpeg",
      "membershipLevel": "Silver",
      "description": "Modern gym with personal training, group classes, and wellness programs.",
      "hours": "Daily: 5am–10pm"
  },
  {
      "name": "Green Thumb Landscaping",
      "address": "789 Garden Road, Candelaria, TX 78901",
      "phone": "(555) 234-5678",
      "website": "https://www.greenthumbtx.com",
      "image": "images/greenthumb.jpeg",
      "membershipLevel": "Bronze",
      "description": "Professional landscaping and garden design services for homes and businesses.",
      "hours": "Mon–Sat: 8am–6pm"
  },
  {
      "name": "TechNest IT Solutions",
      "address": "1010 Innovation Blvd, Candelaria, TX 78901",
      "phone": "(555) 321-7890",
      "website": "https://www.technest.com",
      "image": "images/tech.jpeg",
      "membershipLevel": "Gold",
      "description": "Managed IT support and cybersecurity services for small businesses.",
      "hours": "Mon–Fri: 9am–6pm"
  },
  {
      "name": "Blossom Boutique",
      "address": "234 Fashion Avenue, Candelaria, TX 78901",
      "phone": "(555) 654-3210",
      "website": "https://www.blossomboutique.com",
      "image": "images/blossom.jpeg",
      "membershipLevel": "Silver",
      "description": "Chic clothing and accessories for women of all ages.",
      "hours": "Mon–Sat: 10am–7pm"
  },
  {
      "name": "Candelaria Book Nook",
      "address": "345 Story St, Candelaria, TX 78901",
      "phone": "(555) 888-1212",
      "website": "https://www.booknookcandelaria.com",
      "image": "images/booknook.jpeg",
      "membershipLevel": "Bronze",
      "description": "Independent bookstore with a cozy atmosphere and community events.",
      "hours": "Tue–Sun: 10am–8pm"
  },
  {
      "name": "Luna’s Mexican Grill",
      "address": "678 Fiesta Blvd, Candelaria, TX 78901",
      "phone": "(555) 456-7891",
      "website": "https://www.lunasgrill.com",
      "image": "images/lunas.jpeg",
      "membershipLevel": "Gold",
      "description": "Family-owned restaurant serving traditional Mexican dishes and margaritas.",
      "hours": "Daily: 11am–10pm"
  }
]
